[
  {
    "geometry": {
      "type": "Point",
      "coordinates": [
        47.501047,
        19.05665
      ]
    },
    "type": "Feature",
    "properties": {
      "city": "Budapest",
      "name": "Hotel Moments",
      "company": "A8 Palace Hotel Zrt.",
      "address": "Andr\u00e1ssy \u00fat 8.",
      "type": "sz\u00e1lloda",
      "id": 0
    }
  },
  {
    "geometry": {
      "type": "Point",
      "coordinates": [
        46.946188,
        17.876507
      ]
    },
    "type": "Feature",
    "properties": {
      "city": "Balatonf\u00fcred",
      "name": "Balatontourist F\u00fcred Kemping \u00e9s \u00dcd\u00fcl\u0151falu",
      "company": "BALATONTOURIST CAMPING Kft.",
      "address": "Sz\u00e9chenyi Istv\u00e1n u. 24.",
      "type": "kemping",
      "id": 1
    }
  },
  {
    "geometry": {
      "type": "Point",
      "coordinates": [
        46.927766,
        18.103393
      ]
    },
    "type": "Feature",
    "properties": {
      "city": "Si\u00f3fok-Szabadif\u00fcrd\u0151",
      "name": "Aranypart Camping",
      "company": "BALATONTOURIST CAMPING Kft.",
      "address": "Szent L\u00e1szl\u00f3 u. 185.",
      "type": "kemping",
      "id": 2
    }
  },
  {
    "geometry": {
      "type": "Point",
      "coordinates": [
        46.712952,
        17.3075676
      ]
    },
    "type": "Feature",
    "properties": {
      "city": "Balatonber\u00e9ny",
      "name": "BER\u00c9NY NATURISTA KEMPING ",
      "company": "BALATONTOURIST CAMPING Kft. ",
      "address": "H\u00e9tvez\u00e9r u. 2.",
      "type": "kemping",
      "id": 3
    }
  },
  {
    "geometry": {
      "type": "Point",
      "coordinates": [
        46.7965731,
        17.7236447
      ]
    },
    "type": "Feature",
    "properties": {
      "city": "Balatonszemes",
      "name": "VADVIR\u00c1G KEMPING & \u00dcD\u00dcL\u0150FALU",
      "company": "BALATONTOURIST CAMPING Kft. ",
      "address": "Lellei u. 1-2.",
      "type": "kemping",
      "id": 4
    }
  },
  {
    "geometry": {
      "type": "Point",
      "coordinates": [
        46.3920938,
        17.8198009
      ]
    },
    "type": "Feature",
    "properties": {
      "city": "Kaposv\u00e1r",
      "name": "Deseda kemping",
      "company": "BALATONTOURIST CAMPING Kft. ",
      "address": "7400 Kaposv\u00e1r, Kemping u. 47, ",
      "type": "kemping",
      "id": 5
    }
  },
  {
    "geometry": {
      "type": "Point",
      "coordinates": [
        46.746857,
        17.244156
      ]
    },
    "type": "Feature",
    "properties": {
      "city": "Keszthely",
      "name": "Zala Kemping \u00e9s \u00dcd\u00fcl\u0151falu",
      "company": "BALATONTOURIST CAMPING Kft. ",
      "address": "Entz G\u00e9za stny. 1.",
      "type": "kemping",
      "id": 6
    }
  },
  {
    "geometry": {
      "type": "Point",
      "coordinates": [
        46.829534,
        17.639974
      ]
    },
    "type": "Feature",
    "properties": {
      "city": "R\u00e9vf\u00fcl\u00f6p",
      "name": "Napf\u00e9ny Kemping",
      "company": "BALATONTOURIST CAMPING Kft. ",
      "address": "Hal\u00e1sz u. 5.",
      "type": "kemping",
      "id": 7
    }
  },
  {
    "geometry": {
      "type": "Point",
      "coordinates": [
        46.7514613,
        17.331343
      ]
    },
    "type": "Feature",
    "properties": {
      "city": "Vonyarcvashegy",
      "name": "KEMPING & \u00dcD\u00dcL\u0150FALU",
      "company": "BALATONTOURIST CAMPING Kft. ",
      "address": "Park u. 016/1",
      "type": "kemping",
      "id": 8
    }
  },
  {
    "geometry": {
      "type": "Point",
      "coordinates": [
        46.553683,
        17.1238526
      ]
    },
    "type": "Feature",
    "properties": {
      "city": "Zalakaros",
      "name": "TERM\u00c1L KEMPING ",
      "company": "BALATONTOURIST CAMPING Kft. ",
      "address": "8749 Zalakaros, Gy\u00f3gyf\u00fcrd\u0151 t\u00e9r 6.",
      "type": "kemping",
      "id": 9
    }
  },
  {
    "geometry": {
      "type": "Point",
      "coordinates": [
        46.8804029,
        17.9129793
      ]
    },
    "type": "Feature",
    "properties": {
      "city": "Zam\u00e1rdi",
      "name": "MIRABELLA KEMPING",
      "company": "BALATONTOURIST CAMPING Kft. ",
      "address": "Szent Istv\u00e1n \u00fat hrsz. 3512.",
      "type": "kemping",
      "id": 10
    }
  },
  {
    "geometry": {
      "type": "Point",
      "coordinates": [
        46.411842,
        20.324236
      ]
    },
    "type": "Feature",
    "properties": {
      "city": "H\u00f3dmez\u0151v\u00e1s\u00e1rhely",
      "name": "BAGOLYV\u00c1R CLUB \u00c9TTEREM",
      "company": "B\u00f3nus Istv\u00e1n",
      "address": "Kaszap utca 27.",
      "type": "\u00e9tterem",
      "id": 11
    }
  },
  {
    "geometry": {
      "type": "Point",
      "coordinates": [
        46.414964,
        20.316474
      ]
    },
    "type": "Feature",
    "properties": {
      "city": "H\u00f3dmez\u0151v\u00e1s\u00e1rhely",
      "name": "Fekete Sas Mulat\u00f3 \u00e9s K\u00e1v\u00e9h\u00e1z",
      "company": "B\u00f3nus Istv\u00e1n",
      "address": "Kossuth t\u00e9r 3.",
      "type": "b\u00e1r",
      "id": 12
    }
  },
  {
    "geometry": {
      "type": "Point",
      "coordinates": [
        46.414964,
        20.316474
      ]
    },
    "type": "Feature",
    "properties": {
      "city": "H\u00f3dmez\u0151v\u00e1s\u00e1rhely",
      "name": "Fekete Sas S\u00f6r\u00f6z\u0151 \u00e9s \u00c9tterem",
      "company": "B\u00f3nus Istv\u00e1n",
      "address": "Kossuth t\u00e9r 3.",
      "type": "\u00e9tterem",
      "id": 13
    }
  },
  {
    "geometry": {
      "type": "Point",
      "coordinates": [
        46.422037,
        20.317651
      ]
    },
    "type": "Feature",
    "properties": {
      "city": "H\u00f3dmez\u0151v\u00e1s\u00e1rhely",
      "name": "BANDULA KISVEND\u00c9GL\u0150",
      "company": "B\u00f3nus Istv\u00e1n",
      "address": "P\u00e1lffy u. 2.",
      "type": "\u00e9tterem",
      "id": 14
    }
  },
  {
    "geometry": {
      "type": "Point",
      "coordinates": [
        46.422054,
        20.317485
      ]
    },
    "type": "Feature",
    "properties": {
      "city": "H\u00f3dmez\u0151v\u00e1s\u00e1rhely",
      "name": "BANDULA BORSOROL\u00d3",
      "company": "B\u00f3nus Istv\u00e1n",
      "address": "P\u00e1lffy u. 4.",
      "type": "\u00e9tterem",
      "id": 15
    }
  },
  {
    "geometry": {
      "type": "Point",
      "coordinates": [
        46.422164,
        20.317222
      ]
    },
    "type": "Feature",
    "properties": {
      "city": "H\u00f3dmez\u0151v\u00e1s\u00e1rhely",
      "name": "KIS BANDULA FALODA",
      "company": "B\u00f3nus Istv\u00e1n",
      "address": "P\u00e1lffy u. 4.",
      "type": "\u00e9tterem",
      "id": 16
    }
  },
  {
    "geometry": {
      "type": "Point",
      "coordinates": [
        46.390316,
        20.279949
      ]
    },
    "type": "Feature",
    "properties": {
      "city": "H\u00f3dmez\u0151v\u00e1s\u00e1rhely",
      "name": "K\u00d6K\u00c9NYDOMBI CS\u00c1RDA",
      "company": "B\u00f3nus Istv\u00e1n",
      "address": "Z\u00f6lderd\u0151 utca 4.",
      "type": "\u00e9tterem",
      "id": 17
    }
  },
  {
    "geometry": {
      "type": "Point",
      "coordinates": [
        47.500933,
        19.052963
      ]
    },
    "type": "Feature",
    "properties": {
      "city": "Budapest",
      "name": "Bestia",
      "company": "Burger & Beer Kft.",
      "address": "Szent Istv\u00e1n t\u00e9r 9.",
      "type": "\u00e9tterem",
      "id": 18
    }
  },
  {
    "geometry": {
      "type": "Point",
      "coordinates": [
        47.500403,
        19.047865
      ]
    },
    "type": "Feature",
    "properties": {
      "city": "Budapest",
      "name": "TOKIO Budapest",
      "company": "Burger & Beer Kft.",
      "address": "Sz\u00e9chenyi Istv\u00e1n t\u00e9r 7-8.",
      "type": "b\u00e1r",
      "id": 19
    }
  },
  {
    "geometry": {
      "type": "Point",
      "coordinates": [
        47.50045,
        19.050913
      ]
    },
    "type": "Feature",
    "properties": {
      "city": "Budapest",
      "name": "Tom George Budapest",
      "company": "Burger & Beer Kft.",
      "address": "Okt\u00f3ber 6. u. 8.",
      "type": "\u00e9tterem",
      "id": 20
    }
  },
  {
    "geometry": {
      "type": "Point",
      "coordinates": [
        47.4262035,
        18.6025454
      ]
    },
    "type": "Feature",
    "properties": {
      "city": "Alcs\u00fatdoboz",
      "name": "V\u00e1lv\u00f6lgyi P\u00e9ks\u00e9g \u00e9s Hentesbolt",
      "company": "B\u00fazakal\u00e1sz 66 Felcs\u00fat Kft.",
      "address": "B\u00e9ke utca 1.",
      "type": "bolt",
      "id": 21
    }
  },
  {
    "geometry": {
      "type": "Point",
      "coordinates": [
        47.1888803,
        18.4044836
      ]
    },
    "type": "Feature",
    "properties": {
      "city": "Sz\u00e9kesfeh\u00e9rv\u00e1r",
      "name": "H\u00fas\u00e1ruh\u00e1z",
      "company": "B\u00fazakal\u00e1sz 66 Felcs\u00fat Kft.",
      "address": "Csap\u00f3 utca 2/A-4",
      "type": "bolt",
      "id": 22
    }
  },
  {
    "geometry": {
      "type": "Point",
      "coordinates": [
        46.877667,
        17.698111
      ]
    },
    "type": "Feature",
    "properties": {
      "city": "Z\u00e1nka",
      "name": "Canter Borh\u00e1z & Vinot\u00e9ka",
      "company": "Canter Borh\u00e1z Kft",
      "address": "Borosok \u00fatja 1.",
      "type": "bor\u00e1szat",
      "id": 23
    }
  },
  {
    "geometry": {
      "type": "Point",
      "coordinates": [
        48.170109,
        21.361615
      ]
    },
    "type": "Feature",
    "properties": {
      "city": "Bodrogkisfalud",
      "name": "Dereszla bor\u00e1szat",
      "company": "DERESZLA Bortermel\u0151 Kft.",
      "address": "Kossuth u.",
      "type": "bor\u00e1szat",
      "id": 24
    }
  },
  {
    "geometry": {
      "type": "Point",
      "coordinates": [
        47.497912,
        19.040235
      ]
    },
    "type": "Feature",
    "properties": {
      "city": "Budapest",
      "name": "K\u00f6z\u00e9rt B\u00e1r",
      "company": "Fr\u00f6ccsterasz Kft.",
      "address": "Erzs\u00e9bet t\u00e9r ",
      "type": "b\u00e1r",
      "id": 25
    }
  },
  {
    "geometry": {
      "type": "Point",
      "coordinates": [
        47.498737,
        19.053571
      ]
    },
    "type": "Feature",
    "properties": {
      "city": "Budapest",
      "name": "Snacks And Steaks",
      "company": "Fr\u00f6ccsterasz Kft.",
      "address": "Erzs\u00e9bet t\u00e9r 11-13 .",
      "type": "\u00e9tterem",
      "id": 26
    }
  },
  {
    "geometry": {
      "type": "Point",
      "coordinates": [
        47.504107,
        19.0312581
      ]
    },
    "type": "Feature",
    "properties": {
      "city": "Budapest",
      "name": "21 Magyar Vend\u00e9gl\u0151",
      "company": "HARLEQUIN Kft.",
      "address": "Fortuna u. 21",
      "type": "\u00e9tterem",
      "id": 27
    }
  },
  {
    "geometry": {
      "type": "Point",
      "coordinates": [
        47.5031074,
        19.0326973
      ]
    },
    "type": "Feature",
    "properties": {
      "city": "Budapest",
      "name": "Pest-Buda \u00c9tterem Terasz: Pest",
      "company": "HARLEQUIN Kft.",
      "address": "Fortuna utca 3.",
      "type": "\u00e9tterem",
      "id": 28
    }
  },
  {
    "geometry": {
      "type": "Point",
      "coordinates": [
        48.1514379,
        21.349178
      ]
    },
    "type": "Feature",
    "properties": {
      "city": "Bodrogkereszt\u00far",
      "name": "Henye Vend\u00e9gh\u00e1z",
      "company": "Henye Hotel Kft.",
      "address": "Henye d\u0171l\u0151, Hrsz: 0134/2",
      "type": "sz\u00e1lloda",
      "id": 29
    }
  },
  {
    "geometry": {
      "type": "Point",
      "coordinates": [
        46.74815,
        17.55642
      ]
    },
    "type": "Feature",
    "properties": {
      "city": "Fony\u00f3d",
      "name": "Balaton Panzi\u00f3",
      "company": "Hotel Balaton Kft.",
      "address": "Szent Isvt\u00e1n utca 1.",
      "type": "sz\u00e1lloda",
      "id": 30
    }
  },
  {
    "geometry": {
      "type": "Point",
      "coordinates": [
        46.792001,
        17.188654
      ]
    },
    "type": "Feature",
    "properties": {
      "city": "H\u00e9v\u00edz",
      "name": "Hotel Carbona",
      "company": "Hotel Carbona Zrt.",
      "address": "Attila u. 1.",
      "type": "sz\u00e1lloda",
      "id": 31
    }
  },
  {
    "geometry": {
      "type": "Point",
      "coordinates": [
        46.828685,
        17.635558
      ]
    },
    "type": "Feature",
    "properties": {
      "city": "R\u00e9vf\u00fcl\u00f6p",
      "name": "Hotel R\u00e9vf\u00fcl\u00f6p",
      "company": "Hotel R\u00e9vf\u00fcl\u00f6p Kft.",
      "address": "Hal\u00e1sz utca 37.",
      "type": "sz\u00e1lloda",
      "id": 32
    }
  },
  {
    "geometry": {
      "type": "Point",
      "coordinates": [
        46.8296343,
        17.6368319
      ]
    },
    "type": "Feature",
    "properties": {
      "city": "R\u00e9vf\u00fcl\u00f6p",
      "name": "Hotel R\u00e9vf\u00fcl\u00f6p Drinkb\u00e1r",
      "company": "Hotel R\u00e9vf\u00fcl\u00f6p Kft.",
      "address": "Hal\u00e1sz utca 37.",
      "type": "sz\u00e1lloda",
      "id": 33
    }
  },
  {
    "geometry": {
      "type": "Point",
      "coordinates": [
        46.7623799,
        17.2429887
      ]
    },
    "type": "Feature",
    "properties": {
      "city": "Keszthely",
      "name": "Hotel Via",
      "company": "HOTEL VIA Kft.",
      "address": "Balaton u. 15.",
      "type": "sz\u00e1lloda",
      "id": 34
    }
  },
  {
    "geometry": {
      "type": "Point",
      "coordinates": [
        47.0303333,
        18.0179755
      ]
    },
    "type": "Feature",
    "properties": {
      "city": "Balatonalm\u00e1di",
      "name": "Hotel B\u00e1l Resort",
      "company": "Hunguest Hotels Zrt.",
      "address": "Bajcsy-Zsilinszky u. 14.",
      "type": "sz\u00e1lloda",
      "id": 35
    }
  },
  {
    "geometry": {
      "type": "Point",
      "coordinates": [
        47.4773166,
        19.0923119
      ]
    },
    "type": "Feature",
    "properties": {
      "city": "Budapest",
      "name": "Hotel Millennium",
      "company": "Hunguest Hotels Zrt.",
      "address": "\u00dcll\u0151i \u00fat 94-98.",
      "type": "sz\u00e1lloda",
      "id": 36
    }
  },
  {
    "geometry": {
      "type": "Point",
      "coordinates": [
        47.4786446,
        19.0983753
      ]
    },
    "type": "Feature",
    "properties": {
      "city": "Budapest",
      "name": "Hotel Plat\u00e1nus",
      "company": "Hunguest Hotels Zrt.",
      "address": "K\u00f6nyves K. krt. 44.",
      "type": "sz\u00e1lloda",
      "id": 37
    }
  },
  {
    "geometry": {
      "type": "Point",
      "coordinates": [
        47.385011,
        16.7854021
      ]
    },
    "type": "Feature",
    "properties": {
      "city": "B\u00fckf\u00fcrd\u0151",
      "name": "Hotel R\u00e9pce",
      "company": "Hunguest Hotels Zrt.",
      "address": "Term\u00e1l krt. 26.",
      "type": "sz\u00e1lloda",
      "id": 38
    }
  },
  {
    "geometry": {
      "type": "Point",
      "coordinates": [
        47.3761289,
        16.7704868
      ]
    },
    "type": "Feature",
    "properties": {
      "city": "B\u00fckf\u00fcrd\u0151",
      "name": "Hotel R\u00e9pce Gold",
      "company": "Hunguest Hotels Zrt.",
      "address": "Eur\u00f3pa \u00fat 3.",
      "type": "sz\u00e1lloda",
      "id": 39
    }
  },
  {
    "geometry": {
      "type": "Point",
      "coordinates": [
        46.357707,
        25.7981104
      ]
    },
    "type": "Feature",
    "properties": {
      "city": "Cs\u00edkszereda",
      "name": "Hunguest Hotel Feny\u0151",
      "company": "Hunguest Hotels Zrt.",
      "address": "530003 Cs\u00edkszereda, N. B\u0103lcescu u. 11.",
      "type": "sz\u00e1lloda",
      "id": 40
    }
  },
  {
    "geometry": {
      "type": "Point",
      "coordinates": [
        47.8987456,
        20.3803223
      ]
    },
    "type": "Feature",
    "properties": {
      "city": "Eger",
      "name": "Hotel Fl\u00f3ra",
      "company": "Hunguest Hotels Zrt.",
      "address": "F\u00fcrd\u0151 u. 5.",
      "type": "sz\u00e1lloda",
      "id": 41
    }
  },
  {
    "geometry": {
      "type": "Point",
      "coordinates": [
        47.853924,
        20.335601
      ]
    },
    "type": "Feature",
    "properties": {
      "city": "Egerszal\u00f3k",
      "name": "Saliris Resort - Spa Conference Hotel",
      "company": "Hunguest Hotels Zrt.",
      "address": "Forr\u00e1s u. 6.",
      "type": "sz\u00e1lloda",
      "id": 42
    }
  },
  {
    "geometry": {
      "type": "Point",
      "coordinates": [
        47.9159836,
        19.9214812
      ]
    },
    "type": "Feature",
    "properties": {
      "city": "Galyatet\u0151",
      "name": "Grandhotel Galya",
      "company": "Hunguest Hotels Zrt.",
      "address": "Kod\u00e1ly Zolt\u00e1n s\u00e9t\u00e1ny 10.",
      "type": "sz\u00e1lloda",
      "id": 43
    }
  },
  {
    "geometry": {
      "type": "Point",
      "coordinates": [
        47.916038,
        19.923718
      ]
    },
    "type": "Feature",
    "properties": {
      "city": "Galyatet\u0151",
      "name": "Hunguest Grandhotel Galya",
      "company": "Hunguest Hotels Zrt.",
      "address": "Kod\u00e1ly Zolt\u00e1n s\u00e9t\u00e1ny 10.",
      "type": "sz\u00e1lloda",
      "id": 44
    }
  },
  {
    "geometry": {
      "type": "Point",
      "coordinates": [
        46.6448287,
        21.2851954
      ]
    },
    "type": "Feature",
    "properties": {
      "city": "Gyula",
      "name": "Hotel Erkel",
      "company": "Hunguest Hotels Zrt.",
      "address": "V\u00e1rkert u.1.",
      "type": "sz\u00e1lloda",
      "id": 45
    }
  },
  {
    "geometry": {
      "type": "Point",
      "coordinates": [
        47.4530626,
        21.4022603
      ]
    },
    "type": "Feature",
    "properties": {
      "city": "Hajd\u00faszoboszl\u00f3",
      "name": "Hotel Apollo",
      "company": "Hunguest Hotels Zrt.",
      "address": "M\u00e1ty\u00e1s Kir\u00e1ly s\u00e9t\u00e1ny 12-14.",
      "type": "sz\u00e1lloda",
      "id": 46
    }
  },
  {
    "geometry": {
      "type": "Point",
      "coordinates": [
        47.4511456,
        21.3987523
      ]
    },
    "type": "Feature",
    "properties": {
      "city": "Hajd\u00faszoboszl\u00f3",
      "name": "Hotel Aqua-Sol",
      "company": "Hunguest Hotels Zrt.",
      "address": "G\u00e1bor \u00c1ron utca 7-9.",
      "type": "sz\u00e1lloda",
      "id": 47
    }
  },
  {
    "geometry": {
      "type": "Point",
      "coordinates": [
        47.4526935,
        21.4018193
      ]
    },
    "type": "Feature",
    "properties": {
      "city": "Hajd\u00faszoboszl\u00f3",
      "name": "Hotel B\u00e9ke",
      "company": "Hunguest Hotels Zrt.",
      "address": "M\u00e1ty\u00e1s Kir\u00e1ly s\u00e9t\u00e1ny 10.",
      "type": "sz\u00e1lloda",
      "id": 48
    }
  },
  {
    "geometry": {
      "type": "Point",
      "coordinates": [
        47.0403816,
        12.8330124
      ]
    },
    "type": "Feature",
    "properties": {
      "city": "Heiligenblut",
      "name": "Hotel Heiligenblut",
      "company": "Hunguest Hotels Zrt.",
      "address": "9844 Heiligenblut, Winkl 46",
      "type": "sz\u00e1lloda",
      "id": 49
    }
  },
  {
    "geometry": {
      "type": "Point",
      "coordinates": [
        42.4547366,
        18.5246122
      ]
    },
    "type": "Feature",
    "properties": {
      "city": "Herceg Novi",
      "name": "Hotel Sun Resort",
      "company": "Hunguest Hotels Zrt.",
      "address": "Herceg Novi, Sveta bubala bb.",
      "type": "sz\u00e1lloda",
      "id": 50
    }
  },
  {
    "geometry": {
      "type": "Point",
      "coordinates": [
        46.7892136,
        17.1860043
      ]
    },
    "type": "Feature",
    "properties": {
      "city": "H\u00e9v\u00edz",
      "name": "Hotel Panor\u00e1ma",
      "company": "Hunguest Hotels Zrt.",
      "address": "Pet\u0151fi S\u00e1ndor u. 9.",
      "type": "sz\u00e1lloda",
      "id": 51
    }
  },
  {
    "geometry": {
      "type": "Point",
      "coordinates": [
        46.780999,
        17.18491
      ]
    },
    "type": "Feature",
    "properties": {
      "city": "H\u00e9v\u00edz",
      "name": "Hunguest Hotel Helios",
      "company": "Hunguest Hotels Zrt.",
      "address": "V\u00f6r\u00f6smarty Mih\u00e1ly utca 91.",
      "type": "sz\u00e1lloda",
      "id": 52
    }
  },
  {
    "geometry": {
      "type": "Point",
      "coordinates": [
        47.0994512,
        14.0902618
      ]
    },
    "type": "Feature",
    "properties": {
      "city": "Kreischberg",
      "name": "HOTEL ALPENBLICK",
      "company": "Hunguest Hotels Zrt.",
      "address": "8861 Kreischberg, St. Gerorgen am Kreischberg Sankt Lorenzen 6.",
      "type": "sz\u00e1lloda",
      "id": 53
    }
  },
  {
    "geometry": {
      "type": "Point",
      "coordinates": [
        47.098481,
        14.087488
      ]
    },
    "type": "Feature",
    "properties": {
      "city": "Kreischberg",
      "name": "Hotel Relax Resort",
      "company": "Hunguest Hotels Zrt.",
      "address": "Kreischberg 2",
      "type": "sz\u00e1lloda",
      "id": 54
    }
  },
  {
    "geometry": {
      "type": "Point",
      "coordinates": [
        47.0984301,
        14.0852829
      ]
    },
    "type": "Feature",
    "properties": {
      "city": "Kreischberg",
      "name": "HOTEL RELAX RESORT ",
      "company": "Hunguest Hotels Zrt.",
      "address": "Kreischberg, Kreischberg 2",
      "type": "sz\u00e1lloda",
      "id": 55
    }
  },
  {
    "geometry": {
      "type": "Point",
      "coordinates": [
        48.0978791,
        20.6190183
      ]
    },
    "type": "Feature",
    "properties": {
      "city": "Lillaf\u00fcred",
      "name": "HUNGUEST HOTEL PALOTA",
      "company": "Hunguest Hotels Zrt.",
      "address": "Erzs\u00e9bet s\u00e9t\u00e1ny 1.",
      "type": "sz\u00e1lloda",
      "id": 56
    }
  },
  {
    "geometry": {
      "type": "Point",
      "coordinates": [
        47.852673,
        19.9702903
      ]
    },
    "type": "Feature",
    "properties": {
      "city": "M\u00e1trah\u00e1za",
      "name": "LIFESTYLE HOTEL M\u00c1TRA ",
      "company": "Hunguest Hotels Zrt.",
      "address": "HRSZ. 7160",
      "type": "sz\u00e1lloda",
      "id": 57
    }
  },
  {
    "geometry": {
      "type": "Point",
      "coordinates": [
        47.986824,
        21.7183024
      ]
    },
    "type": "Feature",
    "properties": {
      "city": "Ny\u00edregyh\u00e1za",
      "name": "Hotel S\u00f3st\u00f3",
      "company": "Hunguest Hotels Zrt.",
      "address": "Szindb\u00e1d s\u00e9t\u00e1ny 11.",
      "type": "sz\u00e1lloda",
      "id": 58
    }
  },
  {
    "geometry": {
      "type": "Point",
      "coordinates": [
        46.2488517,
        20.156713
      ]
    },
    "type": "Feature",
    "properties": {
      "city": "Szeged",
      "name": "AQUA BISTRO",
      "company": "Hunguest Hotels Zrt.",
      "address": "Toront\u00e1l t\u00e9r 1.",
      "type": "b\u00e1r",
      "id": 59
    }
  },
  {
    "geometry": {
      "type": "Point",
      "coordinates": [
        46.248307,
        20.1586729
      ]
    },
    "type": "Feature",
    "properties": {
      "city": "Szeged",
      "name": "AQUABISTRO",
      "company": "Hunguest Hotels Zrt.",
      "address": "Toront\u00e1l t\u00e9r 6.",
      "type": "b\u00e1r",
      "id": 60
    }
  },
  {
    "geometry": {
      "type": "Point",
      "coordinates": [
        46.2513345,
        20.160025
      ]
    },
    "type": "Feature",
    "properties": {
      "city": "Szeged",
      "name": "BOWLING B\u00c1R",
      "company": "Hunguest Hotels Zrt.",
      "address": "Szent-Gy\u00f6rgyi Albert u. 16-24",
      "type": "b\u00e1r",
      "id": 61
    }
  },
  {
    "geometry": {
      "type": "Point",
      "coordinates": [
        46.2513382,
        20.1578363
      ]
    },
    "type": "Feature",
    "properties": {
      "city": "Szeged",
      "name": "Hotel Forr\u00e1s",
      "company": "Hunguest Hotels Zrt.",
      "address": "Szent-Gy\u00f6rgyi Albert u. 16-24",
      "type": "sz\u00e1lloda",
      "id": 62
    }
  },
  {
    "geometry": {
      "type": "Point",
      "coordinates": [
        46.8859311,
        17.4401407
      ]
    },
    "type": "Feature",
    "properties": {
      "city": "Tapolca",
      "name": "Hotel Pelion",
      "company": "Hunguest Hotels Zrt.",
      "address": "K\u00f6zt\u00e1rsas\u00e1g t\u00e9r 10.",
      "type": "sz\u00e1lloda",
      "id": 63
    }
  },
  {
    "geometry": {
      "type": "Point",
      "coordinates": [
        46.7219583,
        17.1042386
      ]
    },
    "type": "Feature",
    "properties": {
      "city": "Zalaap\u00e1ti",
      "name": "Hotel Helios",
      "company": "Hunguest Hotels Zrt.",
      "address": "V\u00f6r\u00f6smarty Mih\u00e1ly utca 91.",
      "type": "sz\u00e1lloda",
      "id": 64
    }
  },
  {
    "geometry": {
      "type": "Point",
      "coordinates": [
        46.5391328,
        17.1241446
      ]
    },
    "type": "Feature",
    "properties": {
      "city": "Zalakaros",
      "name": "Hotel Freya",
      "company": "Hunguest Hotels Zrt.",
      "address": "Term\u00e1l u. 7",
      "type": "sz\u00e1lloda",
      "id": 65
    }
  },
  {
    "geometry": {
      "type": "Point",
      "coordinates": [
        47.0232493,
        18.0075883
      ]
    },
    "type": "Feature",
    "properties": {
      "city": "Balatonalm\u00e1di",
      "name": "Yacht kemping ",
      "company": "Konzum Nyrt.",
      "address": "V\u00e9ghely Dezs\u0151 utca 18.",
      "type": "kemping",
      "id": 66
    }
  },
  {
    "geometry": {
      "type": "Point",
      "coordinates": [
        46.7612127,
        17.2527183
      ]
    },
    "type": "Feature",
    "properties": {
      "city": "Keszthely",
      "name": "Balaton Sz\u00e1ll\u00f3",
      "company": "Konzum Nyrt.",
      "address": "Mikus Gyula stny. 3.",
      "type": "sz\u00e1lloda",
      "id": 67
    }
  },
  {
    "geometry": {
      "type": "Point",
      "coordinates": [
        46.2498506,
        20.1569881
      ]
    },
    "type": "Feature",
    "properties": {
      "city": "Szeged",
      "name": "Napf\u00e9nyf\u00fcrd\u0151 Aquapolis Szeged",
      "company": "Konzum Nyrt.",
      "address": "Szent-Gy\u00f6rgyi Albert u. 2.",
      "type": "sport",
      "id": 68
    }
  },
  {
    "geometry": {
      "type": "Point",
      "coordinates": [
        47.503969,
        19.03103
      ]
    },
    "type": "Feature",
    "properties": {
      "city": "Budapest",
      "name": "Pierrot",
      "company": "LE PIERROT Kft.",
      "address": "Fortuna u. 14.",
      "type": "\u00e9tterem",
      "id": 69
    }
  },
  {
    "geometry": {
      "type": "Point",
      "coordinates": [
        47.498789,
        19.058925
      ]
    },
    "type": "Feature",
    "properties": {
      "city": "Budapest",
      "name": "Sp\u00edler",
      "company": "LE PIERROT Kft.",
      "address": "Kir\u00e1ly utca 13.",
      "type": "b\u00e1r",
      "id": 70
    }
  },
  {
    "geometry": {
      "type": "Point",
      "coordinates": [
        47.503846,
        19.028412
      ]
    },
    "type": "Feature",
    "properties": {
      "city": "Budapest",
      "name": "Sp\u00edler Biergarten",
      "company": "LE PIERROT Kft.",
      "address": "Kapisztr\u00e1n t\u00e9r",
      "type": "b\u00e1r",
      "id": 71
    }
  },
  {
    "geometry": {
      "type": "Point",
      "coordinates": [
        47.498773,
        19.058848
      ]
    },
    "type": "Feature",
    "properties": {
      "city": "Budapest",
      "name": "Sp\u00edler Bisztr\u00f3",
      "company": "LE PIERROT Kft.",
      "address": "Kir\u00e1ly utca 13.",
      "type": "b\u00e1r",
      "id": 72
    }
  },
  {
    "geometry": {
      "type": "Point",
      "coordinates": [
        47.498772,
        19.059
      ]
    },
    "type": "Feature",
    "properties": {
      "city": "Budapest",
      "name": "Sp\u00edler Shanghai",
      "company": "LE PIERROT Kft.",
      "address": "Kir\u00e1ly utca 13.",
      "type": "b\u00e1r",
      "id": 73
    }
  },
  {
    "geometry": {
      "type": "Point",
      "coordinates": [
        47.490733,
        19.023913
      ]
    },
    "type": "Feature",
    "properties": {
      "city": "Budapest",
      "name": "Tom George Piccolino",
      "company": "Leroy.co Kft.",
      "address": "Alkot\u00e1s u 53.",
      "type": "\u00e9tterem",
      "id": 74
    }
  },
  {
    "geometry": {
      "type": "Point",
      "coordinates": [
        46.7600797,
        17.2521935
      ]
    },
    "type": "Feature",
    "properties": {
      "city": "Keszthely",
      "name": "Helikon Hotel Keszthely",
      "company": "Longoria Holding Zrt.",
      "address": "Mikus Gyula s\u00e9t\u00e1ny 5.",
      "type": "sz\u00e1lloda",
      "id": 75
    }
  },
  {
    "geometry": {
      "type": "Point",
      "coordinates": [
        46.761209,
        17.2527183
      ]
    },
    "type": "Feature",
    "properties": {
      "city": "Keszthely",
      "name": "Hull\u00e1m Hotel",
      "company": "Longoria Holding Zrt.",
      "address": "Mikus Gyula s\u00e9t\u00e1ny 1.",
      "type": "sz\u00e1lloda",
      "id": 76
    }
  },
  {
    "geometry": {
      "type": "Point",
      "coordinates": [
        47.4230127,
        18.6040953
      ]
    },
    "type": "Feature",
    "properties": {
      "city": "Alcs\u00fatdoboz",
      "name": "M\u00e9sz\u00e1ros Pub & Pizz\u00e9ria",
      "company": "M\u00e9sz\u00e1ros Gasztro Kft.",
      "address": "Szabads\u00e1g utca 156.",
      "type": "\u00e9tterem",
      "id": 77
    }
  },
  {
    "geometry": {
      "type": "Point",
      "coordinates": [
        47.4409397,
        18.5854545
      ]
    },
    "type": "Feature",
    "properties": {
      "city": "Felcs\u00fat",
      "name": "\u00c1llom\u00e1s Cafe",
      "company": "M\u00e9sz\u00e1ros Gasztro Kft.",
      "address": "Mozdony u. 4, ",
      "type": "b\u00e1r",
      "id": 78
    }
  },
  {
    "geometry": {
      "type": "Point",
      "coordinates": [
        47.5033575,
        18.7538374
      ]
    },
    "type": "Feature",
    "properties": {
      "city": "Herceghalom",
      "name": "Talentis \u00c9tterem",
      "company": "M\u00e9sz\u00e1ros Gasztro Kft.",
      "address": "Zs\u00e1mb\u00e9ki \u00fat 16.",
      "type": "\u00e9tterem",
      "id": 79
    }
  },
  {
    "geometry": {
      "type": "Point",
      "coordinates": [
        47.5025402,
        18.5481137
      ]
    },
    "type": "Feature",
    "properties": {
      "city": "\u00d3barok",
      "name": "Autohof \u00d3barok",
      "company": "M\u00e9sz\u00e1ros Gasztro Kft.",
      "address": "M1 43 km BAL",
      "type": "\u00e9tterem",
      "id": 80
    }
  },
  {
    "geometry": {
      "type": "Point",
      "coordinates": [
        47.5025402,
        18.5481137
      ]
    },
    "type": "Feature",
    "properties": {
      "city": "\u00d3barok",
      "name": "Autohof \u00d3barok \u00c9tterem",
      "company": "M\u00e9sz\u00e1ros Gasztro Kft.",
      "address": "M1 43 km BAL",
      "type": "\u00e9tterem",
      "id": 81
    }
  },
  {
    "geometry": {
      "type": "Point",
      "coordinates": [
        47.4948923,
        18.5675188
      ]
    },
    "type": "Feature",
    "properties": {
      "city": "\u00d3barok",
      "name": "Szek\u00e9r Cs\u00e1rda Hotel \u00e9s \u00c9tterem",
      "company": "M\u00e9sz\u00e1ros Gasztro Kft.",
      "address": "M1 43 km BAL",
      "type": "\u00e9tterem",
      "id": 82
    }
  },
  {
    "geometry": {
      "type": "Point",
      "coordinates": [
        46.8973608,
        17.8770164
      ]
    },
    "type": "Feature",
    "properties": {
      "city": "Tihany",
      "name": "Vinarius \u00c9tterem",
      "company": "M\u00e9sz\u00e1ros Gasztro Kft.",
      "address": "K\u00fclter\u00fclet 075/17. hrsz",
      "type": "\u00e9tterem",
      "id": 83
    }
  },
  {
    "geometry": {
      "type": "Point",
      "coordinates": [
        47.5040572,
        18.5440557
      ]
    },
    "type": "Feature",
    "properties": {
      "city": "",
      "name": "SZEK\u00c9R CS\u00c1RDA HOTEL \u00c9S \u00c9TTEREM",
      "company": "M\u00e9sz\u00e1ros Gasztro Kft.",
      "address": "M1 43 km BAL",
      "type": "\u00e9tterem",
      "id": 84
    }
  },
  {
    "geometry": {
      "type": "Point",
      "coordinates": [
        46.208453,
        18.529939
      ]
    },
    "type": "Feature",
    "properties": {
      "city": "Erd\u0151smecske",
      "name": "M\u00e9szkemence Vend\u00e9gh\u00e1z",
      "company": "M\u00e9szkemence Kft.",
      "address": "",
      "type": "sz\u00e1lloda",
      "id": 85
    }
  },
  {
    "geometry": {
      "type": "Point",
      "coordinates": [
        47.5023438,
        19.048537
      ]
    },
    "type": "Feature",
    "properties": {
      "city": "Budapest",
      "name": "Mr. Funk Arany J\u00e1nos utca",
      "company": "Mr. Funk Kft.",
      "address": "Arany J\u00e1nos u. 19-21 ",
      "type": "\u00e9tterem",
      "id": 86
    }
  },
  {
    "geometry": {
      "type": "Point",
      "coordinates": [
        47.472709,
        19.276449
      ]
    },
    "type": "Feature",
    "properties": {
      "city": "Budapest",
      "name": "BORFALU-BOR\u00c1SZATI SZAK\u00dcZLET",
      "company": "Palota Borh\u00e1z Bortermel\u0151 \u00e9s Kereskedelmi Kft.",
      "address": "Pesti \u00fat 237/F A/27",
      "type": "bor\u00e1szat",
      "id": 87
    }
  },
  {
    "geometry": {
      "type": "Point",
      "coordinates": [
        47.4220307,
        18.5815675
      ]
    },
    "type": "Feature",
    "properties": {
      "city": "Alcs\u00fatdoboz",
      "name": "Sport Hotel***",
      "company": "Pusk\u00e1s Ferenc Sport Hotel Nonprofit Kft.",
      "address": "8087 Alcs\u00fatdoboz, Kast\u00e9lykert \u00fat 6.",
      "type": "sz\u00e1lloda",
      "id": 88
    }
  },
  {
    "geometry": {
      "type": "Point",
      "coordinates": [
        47.175561,
        20.1594922
      ]
    },
    "type": "Feature",
    "properties": {
      "city": "Szolnok",
      "name": "Tenisz Club Szolnok",
      "company": "Szolnok Tenisz Club KFT.",
      "address": "Galamb u. 9.",
      "type": "sport",
      "id": 89
    }
  },
  {
    "geometry": {
      "type": "Point",
      "coordinates": [
        48.127852,
        21.3471091
      ]
    },
    "type": "Feature",
    "properties": {
      "city": "Tarcal",
      "name": "Andr\u00e1ssy Rezidencia",
      "company": "T\u00c9MADESIGN Kft.",
      "address": "F\u0151 \u00fat 94.",
      "type": "sz\u00e1lloda",
      "id": 90
    }
  },
  {
    "geometry": {
      "type": "Point",
      "coordinates": [
        45.865348,
        18.44438
      ]
    },
    "type": "Feature",
    "properties": {
      "city": "Vill\u00e1ny",
      "name": "Tiff\u00e1n Bor\u00e1szat",
      "company": "Tiff\u00e1n's Kft.",
      "address": "Erkel Ferenc u. 10.",
      "type": "bor\u00e1szat",
      "id": 91
    }
  },
  {
    "geometry": {
      "type": "Point",
      "coordinates": [
        46.911361,
        17.8762673
      ]
    },
    "type": "Feature",
    "properties": {
      "city": "Tihany",
      "name": "Termel\u0151i borkim\u00e9r\u00e9s",
      "company": "Tihany-Vin Kft.",
      "address": "8237 Tihany Kiserd\u0151telepi \u00fat 075/15 hrsz",
      "type": "bor\u00e1szat",
      "id": 92
    }
  },
  {
    "geometry": {
      "type": "Point",
      "coordinates": [
        47.4969,
        19.052412
      ]
    },
    "type": "Feature",
    "properties": {
      "city": "Budapest",
      "name": "\u00c9s Deli",
      "company": "Trinity Gasztron\u00f3mia Kft.",
      "address": "De\u00e1k Ferenc u. 12.",
      "type": "\u00e9tterem",
      "id": 93
    }
  },
  {
    "geometry": {
      "type": "Point",
      "coordinates": [
        47.499104,
        19.058358
      ]
    },
    "type": "Feature",
    "properties": {
      "city": "Budapest",
      "name": "Jamie Oliver's Pizzeria",
      "company": "Trinity Gasztron\u00f3mia Kft.",
      "address": "Kir\u00e1ly utca 13.",
      "type": "\u00e9tterem",
      "id": 94
    }
  },
  {
    "geometry": {
      "type": "Point",
      "coordinates": [
        47.5011857,
        19.0327982
      ]
    },
    "type": "Feature",
    "properties": {
      "city": "Budapest",
      "name": "Jamie's Italian Budapest",
      "company": "Trinity Gasztron\u00f3mia Kft.",
      "address": "Szenth\u00e1roms\u00e1g utca 9-11",
      "type": "\u00e9tterem",
      "id": 95
    }
  },
  {
    "geometry": {
      "type": "Point",
      "coordinates": [
        47.498591,
        19.040139
      ]
    },
    "type": "Feature",
    "properties": {
      "city": "Budapest",
      "name": "Hotel Clark Budapest",
      "company": "Unione-Clark Kft.",
      "address": "Clark \u00c1d\u00e1m t\u00e9r 1",
      "type": "sz\u00e1lloda",
      "id": 96
    }
  },
  {
    "geometry": {
      "type": "Point",
      "coordinates": [
        47.504587,
        19.029236
      ]
    },
    "type": "Feature",
    "properties": {
      "city": "Budapest",
      "name": "Baltaz\u00e1r Grill",
      "company": "V1 Gasztron\u00f3mia Kft.",
      "address": "Orsz\u00e1gh\u00e1z utca 31.",
      "type": "\u00e9tterem",
      "id": 97
    }
  },
  {
    "geometry": {
      "type": "Point",
      "coordinates": [
        47.4567514,
        18.6865039
      ]
    },
    "type": "Feature",
    "properties": {
      "city": "Alcs\u00fatdoboz",
      "name": "Alcs\u00fatdobozi Vad\u00e1szh\u00e1z",
      "company": "V\u00c9RT Vad\u00e1szati Kft.",
      "address": "8087 Alcs\u00fatdoboz Kast\u00e9ly u. 7.,",
      "type": "sz\u00e1lloda",
      "id": 98
    }
  },
  {
    "geometry": {
      "type": "Point",
      "coordinates": [
        47.429763,
        18.702534
      ]
    },
    "type": "Feature",
    "properties": {
      "city": "Alcs\u00fatdoboz",
      "name": "V\u00e9rti vad\u00e1szh\u00e1z",
      "company": "V\u00c9RT Vad\u00e1szati Kft.",
      "address": "V\u00e9rti Vadaskert k\u00f6zep\u00e9n",
      "type": "sz\u00e1lloda",
      "id": 99
    }
  },
  {
    "geometry": {
      "type": "Point",
      "coordinates": [
        46.848666,
        21.21512
      ]
    },
    "type": "Feature",
    "properties": {
      "city": "B\u00e9lmegyer",
      "name": "B\u00e9lmegyeri K\u00e1r\u00e1sz Vad\u00e1szkast\u00e9ly",
      "company": "V\u00c9RT Vad\u00e1szati Kft.",
      "address": "",
      "type": "sz\u00e1lloda",
      "id": 100
    }
  },
  {
    "geometry": {
      "type": "Point",
      "coordinates": [
        46.951496,
        17.839925
      ]
    },
    "type": "Feature",
    "properties": {
      "city": "Balatonf\u00fcred",
      "name": "Villa Vitae",
      "company": "Villa Vitae Kft.",
      "address": "Malomv\u00f6lgy 095/24",
      "type": "sz\u00e1lloda",
      "id": 101
    }
  },
  {
    "geometry": {
      "type": "Point",
      "coordinates": [
        46.8810886,
        17.7529883
      ]
    },
    "type": "Feature",
    "properties": {
      "city": "Balatonakali",
      "name": "Strand-Holiday Kemping",
      "company": "ZION Europe Ingatlanforgalmaz\u00f3 \u00e9s Hasznos\u00edt\u00f3 Kft.",
      "address": "Balaton u. 8, ",
      "type": "kemping",
      "id": 102
    }
  },
  {
    "geometry": {
      "type": "Point",
      "coordinates": [
        47.502705,
        19.058792
      ]
    },
    "type": "Feature",
    "properties": {
      "city": "Budapest",
      "name": "Opera Cafe",
      "company": "Zsidai Group Kft.",
      "address": "Andr\u00e1ssy \u00fat 22.",
      "type": "\u00e9tterem",
      "id": 103
    }
  },
  {
    "geometry": {
      "type": "Point",
      "coordinates": [
        47.503303,
        19.032455
      ]
    },
    "type": "Feature",
    "properties": {
      "city": "Budapest",
      "name": "Pest-Buda Hotel",
      "company": "Zsidai Group Kft.",
      "address": "Fortuna u. 3.",
      "type": "sz\u00e1lloda",
      "id": 104
    }
  }
]
